time(millisecond),datetime(utc),latitude,longitude,height_above_takeoff(feet),height_above_ground_at_drone_location(feet),ground_elevation_at_drone_location(feet),altitude_above_seaLevel(feet),height_sonar(feet),speed(mph),distance(feet),mileage(feet),satellites,gpslevel,voltage(v),max_altitude(feet),max_ascent(feet),max_speed(mph),max_distance(feet), xSpeed(mph), ySpeed(mph), zSpeed(mph), compass_heading(degrees), pitch(degrees), roll(degrees),isPhoto,isVideo,rc_elevator,rc_aileron,rc_throttle,rc_rudder,rc_elevator(percent),rc_aileron(percent),rc_throttle(percent),rc_rudder(percent),gimbal_heading(degrees),gimbal_pitch(degrees),battery_percent,voltageCell1,voltageCell2,voltageCell3,voltageCell4,voltageCell5,voltageCell6,current(A),battery_temperature(f),altitude(feet),ascent(feet),flycStateRaw,flycState,message
0,2022-05-04 17:21:57,0,0,0,Available with any HD 360 subscription,Available with any HD 360 subscription,1854.010413659,0.328084,0,0,0,7,0,0,1854.010413659,0,0,0,0,0,0,126.2, -1.3, -1.6,0,0,364,364,364,1684,-100,-100,-100,100,130.7,0,100,4.3,4.303,4.304,4.299,0,0,0,78.71,1854.010413659,0,41,Motors_Started,
100,2022-05-04 17:21:57,0,0,0,,,1854.010413659,0.328084,0,0,0,7,0,0,1854.010413659,0,0,0,0,0,0,125.9, -1.3, -1.6,0,0,364,364,364,1684,-100,-100,-100,100,130.5,0,100,4.3,4.303,4.304,4.299,0,0,0,78.71,1854.010413659,0,41,Motors_Started,
200,2022-05-04 17:21:57,0,0,0,,,1854.010413659,0.328084,0,0,0,7,0,0,1854.010413659,0,0,0,0,0,0,126.4, -1.3, -1.6,0,0,364,364,364,1684,-100,-100,-100,100,130.7,0,100,4.3,4.303,4.304,4.299,0,0,0,78.71,1854.010413659,0,41,Motors_Started,
300,2022-05-04 17:21:57,0,0,0,,,1854.010413659,0.328084,0,0,0,7,0,17.09,1854.010413659,0,0,0,0,0,0,126, -1.3, -1.6,0,0,364,364,364,1684,-100,-100,-100,100,130.6,0,100,4.3,4.303,4.304,4.299,0,0,1.33,78.71,1854.010413659,0,41,Motors_Started,"Setting new Return-To-Home altitude to 30m (98 ft). Data Recorder File Index is 97. Setting new Maximum Flight Altitude to 30m (98 ft)"
400,2022-05-04 17:21:57,0,0,0,,,1854.010413659,0.328084,0,0,0,7,0,17.09,1854.010413659,0,0,0,0,0,0,126.3, -1.3, -1.6,0,0,364,364,364,1684,-100,-100,-100,100,130.6,0,100,4.3,4.303,4.304,4.299,0,0,1.33,78.71,1854.010413659,0,41,Motors_Started,
500,2022-05-04 17:21:57,0,0,0,,,1854.010413659,0.328084,0,0,0,7,0,17.09,1854.010413659,0,0,0,0,0,0,126.2, -1.3, -1.6,0,0,777,749,745,1412,-37,-42,-42,59,130.6,0,100,4.3,4.303,4.304,4.299,0,0,1.33,78.71,1854.010413659,0,41,Motors_Started,
600,2022-05-04 17:21:57,0,0,0,,,1854.010413659,0.328084,0,0,0,7,0,17.09,1854.010413659,0,0,0,0,0,0,126, -1.3, -1.6,0,0,1024,1024,1024,1024,0,0,0,0,129.6,0,100,4.3,4.303,4.304,4.299,0,0,1.33,78.71,1854.010413659,0,41,Motors_Started,
700,2022-05-04 17:21:58,0,0,0,,,1854.010413659,0.328084,0,0,0,7,0,17.09,1854.010413659,0,0,0,0,0,0,126.3, -1.3, -1.6,0,0,1024,1024,1024,1024,0,0,0,0,128.1,0,100,4.3,4.303,4.304,4.299,0,0,1.33,78.71,1854.010413659,0,41,Motors_Started,
800,2022-05-04 17:21:58,0,0,0,,,1854.010413659,0.328084,0,0,0,7,0,17.09,1854.010413659,0,0,0,0,0,0,126.1, -1.4, -1.6,0,0,1024,1024,1024,1024,0,0,0,0,127.5,0,100,4.3,4.303,4.304,4.299,0,0,1.33,78.71,1854.010413659,0,41,Motors_Started,
900,2022-05-04 17:21:58,0,0,0,,,1854.010413659,0.328084,0,0,0,7,0,17.09,1854.010413659,0,0,0,0,0,0,126.2, -1.4, -1.5,0,0,1024,1024,1024,1024,0,0,0,0,127.2,0,100,4.3,4.303,4.304,4.299,0,0,1.33,78.71,1854.010413659,0,41,Motors_Started,
1000,2022-05-04 17:21:58,0,0,0,,,1854.010413659,0.328084,0,0,0,7,0,17.09,1854.010413659,0,0,0,0,0,0,126.2, -1.5, -1.5,0,0,1024,1024,1024,1024,0,0,0,0,127.2,0,100,4.3,4.303,4.304,4.299,0,0,1.33,78.71,1854.010413659,0,41,Motors_Started,
1100,2022-05-04 17:21:58,0,0,0,,,1854.010413659,0.328084,0,0,0,7,0,17.09,1854.010413659,0,0,0,0,0,0,126.1, -1.6, -1.5,0,0,1024,1024,1024,1024,0,0,0,0,127,0,100,4.3,4.303,4.304,4.299,0,0,1.33,78.71,1854.010413659,0,41,Motors_Started,
1200,2022-05-04 17:21:58,0,0,0,,,1854.010413659,0.328084,0,0,0,7,0,17.09,1854.010413659,0,0,0,0,0,0,126.2, -1.4, -1.5,0,0,1024,1024,1024,1024,0,0,0,0,126.9,0,100,4.3,4.303,4.304,4.299,0,0,1.33,78.71,1854.010413659,0,41,Motors_Started,
1300,2022-05-04 17:21:58,0,0,0,,,1854.010413659,0.328084,0,0,0,7,0,17.106,1854.010413659,0,0,0,0,0,0,126.2, -1.5, -1.5,0,0,1024,1024,1024,1024,0,0,0,0,126.8,0,100,4.274,4.275,4.276,4.262,0,0,2.104,78.71,1854.010413659,0,41,Motors_Started,
1400,2022-05-04 17:21:58,0,0,0,,,1854.010413659,0.328084,0,0,0,7,0,17.106,1854.010413659,0,0,0,0,0,0,126.2, -1.5, -1.5,0,0,1024,1024,1024,1024,0,0,0,0,126.8,0,100,4.274,4.275,4.276,4.262,0,0,2.104,78.71,1854.010413659,0,41,Motors_Started,
1500,2022-05-04 17:21:58,0,0,0,,,1854.010413659,0.328084,0,0,0,7,0,17.106,1854.010413659,0,0,0,0,0,0,126.2, -1.5, -1.4,0,0,1024,1024,1024,1024,0,0,0,0,126.7,0,100,4.274,4.275,4.276,4.262,0,0,2.104,78.71,1854.010413659,0,10,Assisted_Takeoff,
1600,2022-05-04 17:21:58,0,0,0,,,1854.010413659,0.328084,0,0,0,7,0,17.106,1854.010413659,0,0,0,0,0,0,126.2, -1.4, -1.5,0,0,1024,1024,1024,1024,0,0,0,0,126.7,0,100,4.274,4.275,4.276,4.262,0,0,2.104,78.71,1854.010413659,0,10,Assisted_Takeoff,
1700,2022-05-04 17:21:59,0,0,0,,,1854.010413659,0.328084,0,0,0,6,0,17.106,1854.010413659,0,0,0,0,0,0,126.2, -1.3, -1.6,0,0,1024,1024,1024,1024,0,0,0,0,126.6,0,100,4.274,4.275,4.276,4.262,0,0,2.104,78.71,1854.010413659,0,10,Assisted_Takeoff,
1800,2022-05-04 17:21:59,0,0,0,,,1854.010413659,0.328084,0,0,0,6,0,17.106,1854.010413659,0,0,0,0,0,0,126.2, -1.5, -1.5,0,0,1024,1024,1024,1024,0,0,0,0,126.6,0,100,4.274,4.275,4.276,4.262,0,0,2.104,78.71,1854.010413659,0,10,Assisted_Takeoff,
1900,2022-05-04 17:21:59,0,0,0,,,1854.010413659,0.328084,0,0,0,6,0,17.106,1854.010413659,0,0,0,0,0,0,126.2, -1.3, -1.6,0,0,1024,1024,1024,1024,0,0,0,0,126.6,0,100,4.274,4.275,4.276,4.262,0,0,2.104,78.71,1854.010413659,0,10,Assisted_Takeoff,
2000,2022-05-04 17:21:59,0,0,0,,,1854.010413659,0.328084,0,0,0,6,0,17.106,1854.010413659,0,0,0,0,0,0,126.2, -1.4, -1.5,0,0,1024,1024,1024,1024,0,0,0,0,126.6,0,100,4.274,4.275,4.276,4.262,0,0,2.104,78.71,1854.010413659,0,10,Assisted_Takeoff,
2100,2022-05-04 17:21:59,0,0,0,,,1854.010413659,0.328084,0,0,0,6,0,17.106,1854.010413659,0,0,0,0,0,0,126.2, -1.3, -1.6,0,0,1024,1024,1029,1024,0,0,1,0,126.6,0,100,4.274,4.275,4.276,4.262,0,0,2.104,78.71,1854.010413659,0,10,Assisted_Takeoff,
2200,2022-05-04 17:21:59,0,0,0,,,1854.010413659,0.328084,0,0,0,6,0,17.106,1854.010413659,0,0,0,0,0,0,126.2, -1.3, -1.6,0,0,1024,1024,1037,1024,0,0,2,0,126.5,0,100,4.274,4.275,4.276,4.262,0,0,2.104,78.71,1854.010413659,0,10,Assisted_Takeoff,
2300,2022-05-04 17:21:59,0,0,0,,,1854.010413659,0.328084,0,0,0,6,0,17.002,1854.010413659,0,0,0,0,0,0,126.2, -1.4, -1.5,0,0,1024,1024,1024,1024,0,0,0,0,126.5,0,100,4.274,4.275,4.276,4.262,0,0,2.104,78.71,1854.010413659,0,10,Assisted_Takeoff,
2400,2022-05-04 17:21:59,0,0,0,,,1854.010413659,0.328084,0,0,0,6,0,17.002,1854.010413659,0,0,0,0,0,0,126.2, -1.3, -1.6,0,0,1024,1024,1024,1024,0,0,0,0,126.5,0,100,4.274,4.275,4.276,4.262,0,0,2.104,78.71,1854.010413659,0,10,Assisted_Takeoff,
2500,2022-05-04 17:21:59,0,0,0,,,1854.010413659,0.328084,0,0,0,6,0,17.002,1854.010413659,0,0,0,0,0,0,126.2, -1.4, -1.6,0,0,1024,1024,1024,1024,0,0,0,0,126.5,0,100,4.274,4.275,4.276,4.262,0,0,2.104,78.71,1854.010413659,0,10,Assisted_Takeoff,
2600,2022-05-04 17:22:00,0,0,0,,,1854.010413659,0.328084,0,0,0,6,0,17.002,1854.010413659,0,0,0,0,0,0,126.2, -1.3, -1.6,0,0,1024,1024,1024,1024,0,0,0,0,126.5,0,100,4.274,4.275,4.276,4.262,0,0,2.104,78.71,1854.010413659,0,10,Assisted_Takeoff,
2700,2022-05-04 17:22:00,0,0,0,,,1854.010413659,0.328084,0,0,0,6,0,17.002,1854.010413659,0,0,0,0,0,0,126.2, -1.4, -1.6,0,0,1024,1024,1024,1024,0,0,0,0,126.5,0,100,4.274,4.275,4.276,4.262,0,0,2.104,78.71,1854.010413659,0,10,Assisted_Takeoff,
2800,2022-05-04 17:22:00,0,0,0,,,1854.010413659,0.328084,0,0,0,6,0,17.002,1854.010413659,0,0,0,0,0,0,126.2, -1.4, -1.6,0,0,1024,1024,1024,1024,0,0,0,0,126.5,0,100,4.274,4.275,4.276,4.262,0,0,2.104,78.71,1854.010413659,0,10,Assisted_Takeoff,
2900,2022-05-04 17:22:00,0,0,0,,,1854.010413659,0.328084,0,0,0,6,0,17.002,1854.010413659,0,0,0,0,0,0,126.2, -1.3, -1.6,0,0,1024,1024,1024,1024,0,0,0,0,126.5,0,100,4.274,4.275,4.276,4.262,0,0,2.104,78.71,1854.010413659,0,10,Assisted_Takeoff,
3000,2022-05-04 17:22:00,0,0,0,,,1854.010413659,0.328084,0,0,0,6,0,17.002,1854.010413659,0,0,0,0,0,0,126.2, -1.4, -1.6,0,0,1024,1024,1024,1024,0,0,0,0,126.5,0,100,4.274,4.275,4.276,4.262,0,0,2.104,78.71,1854.010413659,0,10,Assisted_Takeoff,
3100,2022-05-04 17:22:00,0,0,0,,,1854.010413659,0.328084,0,0,0,6,0,17.002,1854.010413659,0,0,0,0,0,0,126.2, -1.3, -1.6,0,0,1024,1024,1024,1024,0,0,0,0,126.5,0,100,4.274,4.275,4.276,4.262,0,0,2.104,78.71,1854.010413659,0,10,Assisted_Takeoff,
3200,2022-05-04 17:22:00,0,0,0,,,1854.010413659,0.328084,0,0,0,6,0,17.002,1854.010413659,0,0,0,0,0,0,126.2, -1.3, -1.6,0,0,1024,1024,1024,1024,0,0,0,0,126.5,0,100,4.274,4.275,4.276,4.262,0,0,2.104,78.71,1854.010413659,0,10,Assisted_Takeoff,
3300,2022-05-04 17:22:00,0,0,0,,,1854.010413659,0.328084,0,0,0,6,0,17.076,1854.010413659,0,0,0,0,0,0,126.2, -1.3, -1.6,0,0,1024,1024,1024,1024,0,0,0,0,126.5,0,100,4.277,4.276,4.287,4.287,0,0,3.064,78.71,1854.010413659,0,10,Assisted_Takeoff,
3400,2022-05-04 17:22:00,0,0,0,,,1854.010413659,0.328084,0,0,0,6,0,17.076,1854.010413659,0,0,0,0,0,0,126.2, -1.3, -1.6,0,0,1024,1024,1024,1024,0,0,0,0,126.5,0,100,4.277,4.276,4.287,4.287,0,0,3.064,78.71,1854.010413659,0,10,Assisted_Takeoff,
3500,2022-05-04 17:22:00,0,0,0,,,1854.010413659,0.328084,0,0,0,6,0,17.076,1854.010413659,0,0,0,0,0,0,126.2, -1.4, -1.5,0,0,1024,1024,1024,1024,0,0,0,0,126.5,0,100,4.277,4.276,4.287,4.287,0,0,3.064,78.71,1854.010413659,0,10,Assisted_Takeoff,
3600,2022-05-04 17:22:01,0,0,0,,,1854.010413659,0.328084,0,0,0,6,0,17.076,1854.010413659,0,0,0,0,0,0,126.2, -1.4, -1.6,0,0,1024,1024,1024,1024,0,0,0,0,126.5,0,100,4.277,4.276,4.287,4.287,0,0,3.064,78.71,1854.010413659,0,10,Assisted_Takeoff,
3700,2022-05-04 17:22:01,0,0,0,,,1854.010413659,0.328084,0,0,0,6,0,17.076,1854.010413659,0,0,0,0,0,0,126.3, -1.4, -1.5,0,0,1024,1024,1024,1024,0,0,0,0,126.5,0,100,4.277,4.276,4.287,4.287,0,0,3.064,78.71,1854.010413659,0,10,Assisted_Takeoff,
3800,2022-05-04 17:22:01,0,0,0,,,1854.010413659,0.328084,0,0,0,6,0,17.076,1854.010413659,0,0,0,0,0,0,126.3, -1.3, -1.6,0,0,1024,1024,1024,1024,0,0,0,0,126.5,0,100,4.277,4.276,4.287,4.287,0,0,3.064,78.71,1854.010413659,0,10,Assisted_Takeoff,
3900,2022-05-04 17:22:01,0,0,0,,,1854.010413659,0.328084,0,0,0,6,0,17.076,1854.010413659,0,0,0,0,0,0,126.3, -1.3, -1.6,0,0,1024,1024,1024,1024,0,0,0,0,126.5,0,100,4.277,4.276,4.287,4.287,0,0,3.064,78.71,1854.010413659,0,10,Assisted_Takeoff,
4000,2022-05-04 17:22:01,0,0,0,,,1854.010413659,0.328084,0,0,0,6,0,17.076,1854.010413659,0,0,0,0,0,0,126.3, -1.3, -1.6,0,0,1024,1024,1024,1024,0,0,0,0,126.5,0,100,4.277,4.276,4.287,4.287,0,0,3.064,78.71,1854.010413659,0,10,Assisted_Takeoff,
4100,2022-05-04 17:22:01,0,0,0,,,1854.010413659,0.328084,0,0,0,6,0,17.076,1854.010413659,0,0,0,0,0,0,126.3, -1.3, -1.6,0,0,1024,1024,1024,1024,0,0,0,0,126.5,0,100,4.277,4.276,4.287,4.287,0,0,3.064,78.71,1854.010413659,0,10,Assisted_Takeoff,
4200,2022-05-04 17:22:01,0,0,0,,,1854.010413659,0.328084,0,0,0,6,0,17.076,1854.010413659,0,0,0,0,0,0,126.3, -1.4, -1.6,0,0,1024,1024,1024,1024,0,0,0,0,126.5,0,100,4.277,4.276,4.287,4.287,0,0,3.064,78.71,1854.010413659,0,10,Assisted_Takeoff,
4300,2022-05-04 17:22:01,0,0,0,,,1854.010413659,0.328084,0,0,0,6,0,17.114,1854.010413659,0,0,0,0,0,0,126.3, -1.4, -1.6,0,0,1024,1024,1024,1024,0,0,0,0,126.5,0,100,4.289,4.29,4.294,4.288,0,0,1.886,80.51,1854.010413659,0,10,Assisted_Takeoff,
4400,2022-05-04 17:22:01,0,0,0,,,1854.010413659,0.328084,0,0,0,6,0,17.114,1854.010413659,0,0,0,0,0,0,126.3, -1.3, -1.6,0,0,1024,1024,1024,1024,0,0,0,0,126.5,0,100,4.289,4.29,4.294,4.288,0,0,1.886,80.51,1854.010413659,0,10,Assisted_Takeoff,
4500,2022-05-04 17:22:01,0,0,0,,,1854.010413659,0.328084,0,0,0,6,0,17.114,1854.010413659,0,0,0,0,0,0,126.3, -1.4, -1.6,0,0,1024,1024,1024,1024,0,0,0,0,126.5,0,100,4.289,4.29,4.294,4.288,0,0,1.886,80.51,1854.010413659,0,10,Assisted_Takeoff,
4600,2022-05-04 17:22:01,0,0,0,,,1854.010413659,0.328084,0,0,0,6,0,17.114,1854.010413659,0,0,0,0,0,0,126.3, -1.3, -1.6,0,0,1024,1024,1209,1024,0,0,28,0,126.5,0,100,4.289,4.29,4.294,4.288,0,0,1.886,80.51,1854.010413659,0,10,Assisted_Takeoff,
4700,2022-05-04 17:22:02,0,0,0,,,1854.010413659,0.328084,0,0,0,6,0,17.114,1854.010413659,0,0,0,0,0,0,126.3, -1.3, -1.6,0,0,1024,1024,1479,1024,0,0,69,0,126.5,0,100,4.289,4.29,4.294,4.288,0,0,1.886,80.51,1854.010413659,0,10,Assisted_Takeoff,
4800,2022-05-04 17:22:02,0,0,0,,,1854.010413659,0.328084,0,0,0,6,0,17.114,1854.010413659,0,0,0,0,0,0,126.3, -1.3, -1.6,0,0,1024,1024,1566,1024,0,0,82,0,126.5,0,100,4.289,4.29,4.294,4.288,0,0,1.886,80.51,1854.010413659,0,10,Assisted_Takeoff,
4900,2022-05-04 17:22:02,0,0,0,,,1854.010413659,0.328084,0,0,0,6,0,17.114,1854.010413659,0,0,0,0,0,0,126.3, -1.4, -1.5,0,0,1024,1024,1565,1024,0,0,82,0,126.5,0,100,4.289,4.29,4.294,4.288,0,0,1.886,80.51,1854.010413659,0,10,Assisted_Takeoff,
5000,2022-05-04 17:22:02,0,0,0,,,1854.010413659,0.328084,0,0,0,6,0,17.114,1854.010413659,0,0,0,0,0,0,126.3, -1.6, -1.5,0,0,1024,1024,1558,1024,0,0,81,0,126.5,0,100,4.289,4.29,4.294,4.288,0,0,1.886,80.51,1854.010413659,0,10,Assisted_Takeoff,
5100,2022-05-04 17:22:02,0,0,0,,,1854.010413659,0.328084,0,0,0,6,0,17.114,1854.010413659,0,0,0,0,0,0,126.3, -1.9, -1.4,0,0,1024,1024,1548,1024,0,0,79,0,126.5,0,100,4.289,4.29,4.294,4.288,0,0,1.886,80.51,1854.010413659,0,10,Assisted_Takeoff,
5200,2022-05-04 17:22:02,0,0,0,,,1854.010413659,0.328084,0,0,0,6,0,17.114,1854.010413659,0,0,0,0,0,0,126.3, -2.3, -1.4,0,0,1024,1024,1569,1024,0,0,83,0,126.5,0,100,4.289,4.29,4.294,4.288,0,0,1.886,80.51,1854.010413659,0,10,Assisted_Takeoff,
5300,2022-05-04 17:22:02,0,0,0,,,1854.010413659,0.328084,0,0,0,6,0,16.989,1854.010413659,0,0,0,0,0,0,126.8, -3.4, -1.2,0,0,1024,1024,1544,1024,0,0,79,0,126.5,0,100,4.289,4.291,4.295,4.289,0,0,1.886,80.51,1854.010413659,0,10,Assisted_Takeoff,
5400,2022-05-04 17:22:02,0,0,0,,,1854.010413659,0.328084,0,0,0,6,0,16.989,1854.010413659,0,0,0,0,0,0,127.8, -5.2, -0.5,0,0,1024,1024,1511,1024,0,0,74,0,126.5,0,100,4.289,4.291,4.295,4.289,0,0,1.886,80.51,1854.010413659,0,10,Assisted_Takeoff,
5500,2022-05-04 17:22:02,0,0,0,,,1854.010413659,0.328084,0,0,0,6,0,16.989,1854.010413659,0,0,0,-0.223694,0.223694,-0.223694,128.1, -4.2, 0.3,0,0,1024,1024,1518,1024,0,0,75,0,126.5,0,100,4.289,4.291,4.295,4.289,0,0,1.886,80.51,1854.010413659,0,6,P-GPS,
5600,2022-05-04 17:22:02,0,0,0,,,1854.010413659,0.656168,0.6263432,0,0,6,0,16.989,1854.010413659,0,0.6263432,0,-0.447388,0.447388,-0.894776,128.1, -0.6, 0.4,0,0,1024,1024,1571,1024,0,0,83,0,126.6,0,100,4.289,4.291,4.295,4.289,0,0,1.886,80.51,1854.010413659,0,6,P-GPS,
5700,2022-05-04 17:22:03,0,0,0.328084,,,1854.338497659,0.656168,0.8052984,0,0,6,0,16.989,1854.338497659,0.328084,0.8052984,0,-0.671082,0.447388,-1.789552,128.2, 1.9, 0,0,0,1024,1024,1580,1024,0,0,84,0,126.7,0,100,4.289,4.291,4.295,4.289,0,0,1.886,80.51,1854.338497659,0.328084,6,P-GPS,
5800,2022-05-04 17:22:03,0,0,0.656168,,,1854.666581659,0.984252,0.7158208,0,0,6,0,16.989,1854.666581659,0.656168,0.8052984,0,-0.671082,0.223694,-2.908022,128.2, 3.1, -0.7,0,0,1024,1024,1582,1024,0,0,85,0,126.7,0,100,4.289,4.291,4.295,4.289,0,0,1.886,80.51,1854.666581659,0.656168,6,P-GPS,
5900,2022-05-04 17:22:03,0,0,0.984252,,,1854.994665659,1.64042,0.7158208,0,0,6,0,16.989,1854.994665659,0.984252,0.8052984,0,-0.671082,0.223694,-3.802798,128.2, 4, -1.3,0,0,1024,1024,1586,1024,0,0,85,0,126.8,0,100,4.289,4.291,4.295,4.289,0,0,1.886,80.51,1854.994665659,0.984252,6,P-GPS,
6000,2022-05-04 17:22:03,0,0,1.64042,,,1855.650833659,2.296588,0.447388,0,0,6,0,16.989,1855.650833659,1.64042,0.8052984,0,-0.447388,0,-4.921268,128.2, 3.6, -1.8,0,0,1024,1024,1599,1024,0,0,87,0,126.8,0,100,4.289,4.291,4.295,4.289,0,0,1.886,80.51,1855.650833659,1.64042,6,P-GPS,
6100,2022-05-04 17:22:03,0,0,2.296588,,,1856.307001659,2.952756,0.447388,0,0,6,0,16.989,1856.307001659,2.296588,0.8052984,0,-0.447388,0,-5.816044,128.2, 3.2, -1.7,0,0,1024,1024,1600,1024,0,0,87,0,126.9,0,100,4.289,4.291,4.295,4.289,0,0,1.886,80.51,1856.307001659,2.296588,6,P-GPS,
6200,2022-05-04 17:22:03,0,0,3.28084,,,1857.291253659,3.937008,0.223694,0,0,6,0,16.989,1857.291253659,3.28084,0.8052984,0,-0.223694,0,-6.934514,128.3, 2.5, -2.6,0,0,1024,1024,1589,1024,0,0,86,0,126.9,0,100,4.289,4.291,4.295,4.289,0,0,1.886,80.51,1857.291253659,3.28084,6,P-GPS,
6300,2022-05-04 17:22:03,0,0,4.593176,,,1858.603589659,5.249344,0.223694,0,0,6,0,16.96,1858.603589659,4.593176,0.8052984,0,-0.223694,0,-8.052984,128.3, 1.4, -2.8,0,0,1024,1024,1585,1024,0,0,85,0,126.9,0,100,4.129,4.118,4.125,4.113,0,0,15.172,80.51,1858.603589659,4.593176,6,P-GPS,
6400,2022-05-04 17:22:03,0,0,5.577428,,,1859.587841659,6.233596,0.223694,0,0,6,0,16.96,1859.587841659,5.577428,0.8052984,0,-0.223694,0,-8.500372,128.4, 0.9, -3.2,0,0,1024,1024,1532,1024,0,0,77,0,127,0,100,4.129,4.118,4.125,4.113,0,0,15.172,80.51,1859.587841659,5.577428,6,P-GPS,
6500,2022-05-04 17:22:03,0,0,6.889764,,,1860.900177659,7.545932,0.223694,0,0,5,0,16.96,1860.900177659,6.889764,0.8052984,0,-0.223694,0,-8.94776,128.4, 0.8, -3.2,0,0,1024,1024,1396,1024,0,0,56,0,127,0,100,4.129,4.118,4.125,4.113,0,0,15.172,80.51,1860.900177659,6.889764,6,P-GPS,
6600,2022-05-04 17:22:04,0,0,8.2021,,,1862.212513659,8.858268,0.223694,0,0,5,0,16.96,1862.212513659,8.2021,0.8052984,0,-0.223694,0,-8.94776,128.2, 1.1, -3.6,0,0,1024,1024,1237,1024,0,0,32,0,127.1,0,100,4.129,4.118,4.125,4.113,0,0,15.172,80.51,1862.212513659,8.2021,6,P-GPS,
6700,2022-05-04 17:22:04,0,0,9.514436,,,1863.524849659,10.170604,0.223694,0,0,6,0,16.96,1863.524849659,9.514436,0.8052984,0,-0.223694,0,-8.500372,128, 1.9, -3.6,0,0,1024,1024,1171,1024,0,0,22,0,127.1,0,100,4.129,4.118,4.125,4.113,0,0,15.172,80.51,1863.524849659,9.514436,6,P-GPS,
6800,2022-05-04 17:22:04,0,0,10.826772,,,1864.837185659,11.48294,0.223694,0,0,6,0,16.96,1864.837185659,10.826772,0.8052984,0,-0.223694,0,-7.605596,128, 1.9, -3.6,0,0,1024,1024,1162,1024,0,0,21,0,127.1,0,100,4.129,4.118,4.125,4.113,0,0,15.172,80.51,1864.837185659,10.826772,6,P-GPS,
6900,2022-05-04 17:22:04,0,0,12.139108,,,1866.149521659,12.467192,0.3131716,0,0,6,0,16.96,1866.149521659,12.139108,0.8052984,0,-0.223694,-0.223694,-6.71082,127.9, 1.2, -3.8,0,0,1024,1024,1321,1024,0,0,45,0,127.2,0,100,4.129,4.118,4.125,4.113,0,0,15.172,80.51,1866.149521659,12.139108,6,P-GPS,
7000,2022-05-04 17:22:04,0,0,12.795276,,,1866.805689659,13.451444,0.3131716,0,0,6,0,16.96,1866.805689659,12.795276,0.8052984,0,-0.223694,-0.223694,-5.59235,128, 0.4, -4.1,0,0,1024,1024,1392,1024,0,0,56,0,127.2,0,100,4.129,4.118,4.125,4.113,0,0,15.172,80.51,1866.805689659,12.795276,6,P-GPS,
7100,2022-05-04 17:22:04,0,0,13.779528,,,1867.789941659,14.107612,0.3131716,0,0,6,0,16.96,1867.789941659,13.779528,0.8052984,0,-0.223694,-0.223694,-4.697574,128, -0.1, -3.7,0,0,1024,1024,1358,1024,0,0,51,0,127.2,0,100,4.129,4.118,4.125,4.113,0,0,15.172,80.51,1867.789941659,13.779528,6,P-GPS,
7200,2022-05-04 17:22:04,0,0,14.435696,,,1868.446109659,14.76378,0.223694,0,0,6,0,16.96,1868.446109659,14.435696,0.8052984,0,0,-0.223694,-4.697574,128, 0, -3.5,0,0,1024,1024,1350,1024,0,0,49,0,127.2,0,100,4.129,4.118,4.125,4.113,0,0,15.172,80.51,1868.446109659,14.435696,6,P-GPS,
7300,2022-05-04 17:22:04,0,0,15.091864,,,1869.102277659,15.419948,0.447388,0,0,6,0,16.652,1869.102277659,15.091864,0.8052984,0,0,-0.447388,-4.47388,128.1, -0.6, -4.1,0,0,1024,1024,1283,1024,0,0,39,0,127.2,0,100,4.129,4.118,4.125,4.113,0,0,15.172,80.51,1869.102277659,15.091864,6,P-GPS,
7400,2022-05-04 17:22:04,0,0,16.076116,,,1870.086529659,16.076116,0.223694,0,0,6,0,16.652,1870.086529659,16.076116,0.8052984,0,0,-0.223694,-4.250186,128.2, -1.3, -4.5,0,0,1024,1024,1197,1024,0,0,26,0,127.3,0,100,4.129,4.118,4.125,4.113,0,0,15.172,80.51,1870.086529659,16.076116,6,P-GPS,
7500,2022-05-04 17:22:04,0,0,16.732284,,,1870.742697659,16.732284,0.223694,0,0,5,0,16.652,1870.742697659,16.732284,0.8052984,0,0,-0.223694,-4.026492,128.3, -1.9, -5,0,0,1024,1024,1242,1024,0,0,33,0,127.3,0,100,4.129,4.118,4.125,4.113,0,0,15.172,80.51,1870.742697659,16.732284,6,P-GPS,
7600,2022-05-04 17:22:04,0,0,17.060368,,,1871.070781659,17.388452,0.223694,0,0,5,0,16.652,1871.070781659,17.060368,0.8052984,0,0,-0.223694,-3.131716,128.2, -1.7, -5.3,0,0,1024,1024,1437,1024,0,0,63,0,127.3,0,100,4.129,4.118,4.125,4.113,0,0,15.172,80.51,1871.070781659,17.060368,6,P-GPS,
7700,2022-05-04 17:22:05,0,0,17.388452,,,1871.398865659,17.716536,0,0,0,6,0,16.652,1871.398865659,17.388452,0.8052984,0,0,0,-2.460634,128.2, -1.4, -5.2,0,0,1024,1024,1520,1024,0,0,75,0,127.3,0,100,4.129,4.118,4.125,4.113,0,0,15.172,80.51,1871.398865659,17.388452,6,P-GPS,
7800,2022-05-04 17:22:05,0,0,17.388452,,,1871.398865659,18.04462,0,0,0,6,0,16.652,1871.398865659,17.388452,0.8052984,0,0,0,-2.684328,128.3, -1.2, -4.6,0,0,1024,1024,1510,1024,0,0,74,0,127.3,0,100,4.129,4.118,4.125,4.113,0,0,15.172,80.51,1871.398865659,17.388452,6,P-GPS,
7900,2022-05-04 17:22:05,0,0,18.04462,,,1872.055033659,18.700788,0,0,0,6,0,16.652,1872.055033659,18.04462,0.8052984,0,0,0,-3.131716,128.3, -0.4, -4.1,0,0,1024,1024,1475,1024,0,0,68,0,127.3,0,100,4.129,4.118,4.125,4.113,0,0,15.172,80.51,1872.055033659,18.04462,6,P-GPS,
8000,2022-05-04 17:22:05,0,0,18.372704,,,1872.383117659,19.028872,0,0,0,6,0,16.652,1872.383117659,18.372704,0.8052984,0,0,0,-3.35541,128.2, 0.5, -4,0,0,1024,1024,1473,1024,0,0,68,0,127.3,0,100,4.129,4.118,4.125,4.113,0,0,15.172,80.51,1872.383117659,18.372704,6,P-GPS,
8100,2022-05-04 17:22:05,0,0,19.028872,,,1873.039285659,19.68504,0,0,0,6,0,16.652,1873.039285659,19.028872,0.8052984,0,0,0,-3.579104,128.2, 1.2, -3.7,0,0,1024,1024,1494,1024,0,0,71,0,127.4,0,100,4.129,4.118,4.125,4.113,0,0,15.172,80.51,1873.039285659,19.028872,6,P-GPS,
8200,2022-05-04 17:22:05,0,0,19.356956,,,1873.367369659,20.013124,0,0,0,6,0,16.652,1873.367369659,19.356956,0.8052984,0,0,0,-3.35541,128.2, 0.7, -4.1,0,0,1024,1024,1464,1024,0,0,67,0,127.4,0,100,4.129,4.118,4.125,4.113,0,0,15.172,80.51,1873.367369659,19.356956,6,P-GPS,
8300,2022-05-04 17:22:05,0,0,20.013124,,,1874.023537659,20.669292,0,0,0,6,0,16.136,1874.023537659,20.013124,0.8052984,0,0,0,-3.35541,128.2, 0.4, -4.6,0,0,1024,1024,1405,1024,0,0,58,0,127.4,0,100,4.188,4.184,4.181,4.15,0,0,11.098,80.51,1874.023537659,20.013124,6,P-GPS,
8400,2022-05-04 17:22:05,0,0,20.341208,,,1874.351621659,20.997376,0,0,0,6,0,16.136,1874.351621659,20.341208,0.8052984,0,0,0,-3.131716,128.2, 0.6, -4.6,0,0,1024,1024,1304,1024,0,0,42,0,127.4,0,100,4.188,4.184,4.181,4.15,0,0,11.098,80.51,1874.351621659,20.341208,6,P-GPS,
8500,2022-05-04 17:22:05,0,0,20.997376,,,1875.007789659,21.653544,0,0,0,6,0,16.136,1875.007789659,20.997376,0.8052984,0,0,0,-2.908022,128.2, 0.8, -4.8,0,0,1024,1024,1184,1024,0,0,24,0,127.5,0,100,4.188,4.184,4.181,4.15,0,0,11.098,80.51,1875.007789659,20.997376,6,P-GPS,
8600,2022-05-04 17:22:05,0,0,21.32546,,,1875.335873659,21.981628,0,0,0,6,0,16.136,1875.335873659,21.32546,0.8052984,0,0,0,-2.908022,128.1, 0.8, -5.3,0,0,1024,1024,1103,1024,0,0,12,0,127.4,0,100,4.188,4.184,4.181,4.15,0,0,11.098,80.51,1875.335873659,21.32546,6,P-GPS,
8700,2022-05-04 17:22:06,0,0,21.653544,,,1875.663957659,22.309712,0,0,0,6,0,16.136,1875.663957659,21.653544,0.8052984,0,0,0,-2.460634,128, 0.3, -6,0,0,1251,1024,1024,1024,34,0,0,0,127.5,0,100,4.188,4.184,4.181,4.15,0,0,11.098,80.51,1875.663957659,21.653544,6,P-GPS,
8800,2022-05-04 17:22:06,0,0,21.981628,,,1875.992041659,22.637796,0,0,0,6,0,16.136,1875.992041659,21.981628,0.8052984,0,-0.223694,0,-1.565858,128.1, 0, -7.4,0,0,1468,1024,1024,1024,67,0,0,0,127.5,0,100,4.188,4.184,4.181,4.15,0,0,11.098,80.51,1875.992041659,21.981628,6,P-GPS,
8900,2022-05-04 17:22:06,0,0,22.309712,,,1876.320125659,22.637796,0.223694,0,0,6,0,16.136,1876.320125659,22.309712,0.8052984,0,-0.223694,0,-0.671082,128.1, -0.6, -6.9,0,0,1497,1024,1024,1024,72,0,0,0,127.5,0,100,4.188,4.184,4.181,4.15,0,0,11.098,80.51,1876.320125659,22.309712,6,P-GPS,
9000,2022-05-04 17:22:06,0,0,22.309712,,,1876.320125659,22.96588,0.223694,0,0,6,0,16.136,1876.320125659,22.309712,0.8052984,0,-0.223694,0,-0.447388,128.3, -3.5, -6.5,0,0,1439,1024,1024,1024,63,0,0,0,127.5,0,100,4.188,4.184,4.181,4.15,0,0,11.098,80.51,1876.320125659,22.309712,6,P-GPS,
9100,2022-05-04 17:22:06,0,0,22.309712,,,1876.320125659,22.96588,0.223694,0,0,6,0,16.136,1876.320125659,22.309712,0.8052984,0,-0.223694,0,0,128.5, -7, -6.5,0,0,1382,1024,1024,1024,54,0,0,0,127.5,0,100,4.188,4.184,4.181,4.15,0,0,11.098,80.51,1876.320125659,22.309712,6,P-GPS,
9200,2022-05-04 17:22:06,0,0,22.637796,,,1876.648209659,22.96588,0.4921268,0,0,6,0,16.136,1876.648209659,22.637796,0.8052984,0,-0.447388,0.223694,0,128.6, -9.2, -5.9,0,0,1354,1024,1024,1024,50,0,0,0,127.5,0,100,4.188,4.184,4.181,4.15,0,0,11.098,80.51,1876.648209659,22.637796,6,P-GPS,
9300,2022-05-04 17:22:06,0,0,22.637796,,,1876.648209659,22.96588,0.8052984,0,0,6,0,16.807,1876.648209659,22.637796,0.8052984,0,-0.671082,0.447388,0,128.5, -10.5, -5.9,0,0,1354,1024,1024,1024,50,0,0,0,127.5,0,100,4.188,4.184,4.181,4.15,0,0,11.098,80.51,1876.648209659,22.637796,6,P-GPS,
9400,2022-05-04 17:22:06,0,0,22.637796,,,1876.648209659,22.96588,1.11847,0,0,6,0,16.807,1876.648209659,22.637796,1.11847,0,-0.894776,0.671082,0,128.3, -10.7, -6.2,0,0,1356,1024,1024,1024,50,0,0,0,127.5,0,100,4.188,4.184,4.181,4.15,0,0,11.098,80.51,1876.648209659,22.637796,6,P-GPS,
9500,2022-05-04 17:22:06,0,0,22.637796,,,1876.648209659,22.96588,1.5882274,0,0,6,0,16.807,1876.648209659,22.637796,1.5882274,0,-1.11847,1.11847,0,128.3, -9.8, -6.4,0,0,1341,1024,1024,1024,48,0,0,0,127.5,0,100,4.188,4.184,4.181,4.15,0,0,11.098,80.51,1876.648209659,22.637796,6,P-GPS,
9600,2022-05-04 17:22:07,0,0,22.637796,,,1876.648209659,22.96588,1.7448132,0,0,6,0,16.807,1876.648209659,22.637796,1.7448132,0,-1.11847,1.342164,0,128.3, -9.1, -6,0,0,1316,1024,1030,1024,44,0,1,0,127.5,0,100,4.188,4.184,4.181,4.15,0,0,11.098,80.51,1876.648209659,22.637796,6,P-GPS,
9700,2022-05-04 17:22:07,0,0,22.637796,,,1876.648209659,22.96588,2.23694,0,0,6,0,16.807,1876.648209659,22.637796,2.23694,0,-1.342164,1.789552,0,128.3, -9, -5.6,0,0,1250,1024,1033,1024,34,0,1,0,127.5,0,100,4.188,4.184,4.181,4.15,0,0,11.098,80.51,1876.648209659,22.637796,6,P-GPS,
9800,2022-05-04 17:22:07,0,0,22.637796,,,1876.648209659,22.96588,2.5501116,0,0,6,0,16.807,1876.648209659,22.637796,2.5501116,0,-1.565858,2.013246,0,128.3, -8.8, -5.3,0,0,1024,1024,1046,1024,0,0,3,0,127.5,0,100,4.188,4.184,4.181,4.15,0,0,11.098,80.51,1876.648209659,22.637796,6,P-GPS,
9900,2022-05-04 17:22:07,0,0,22.637796,,,1876.648209659,22.96588,2.7290668,0,0,6,0,16.807,1876.648209659,22.637796,2.7290668,0,-1.565858,2.23694,0,128.3, -8, -5,0,0,1024,1024,1050,1024,0,0,4,0,127.5,0,100,4.188,4.184,4.181,4.15,0,0,11.098,80.51,1876.648209659,22.637796,6,P-GPS,
10000,2022-05-04 17:22:07,0,0,22.637796,,,1876.648209659,22.96588,2.8632832,0,0,6,0,16.807,1876.648209659,22.637796,2.8632832,0,-1.789552,2.23694,0,128.1, -4.1, -4.6,0,0,1024,1024,1063,1024,0,0,6,0,127.5,0,100,4.188,4.184,4.181,4.15,0,0,11.098,80.51,1876.648209659,22.637796,6,P-GPS,
10100,2022-05-04 17:22:07,0,0,22.637796,,,1876.648209659,22.96588,2.7290668,0,0,6,0,16.807,1876.648209659,22.637796,2.8632832,0,-1.565858,2.23694,0,127.8, 4, -3.2,0,0,1024,1024,1091,1024,0,0,10,0,127.5,0,100,4.188,4.184,4.181,4.15,0,0,11.098,80.51,1876.648209659,22.637796,6,P-GPS,
10200,2022-05-04 17:22:07,0,0,22.637796,,,1876.648209659,22.96588,2.7290668,0,0,6,0,16.807,1876.648209659,22.637796,2.8632832,0,-1.342164,1.789552,0,127.6, 9.4, -2.7,0,0,1024,1024,1332,1024,0,0,47,0,127.5,0,100,4.188,4.184,4.181,4.15,0,0,11.098,80.51,1876.648209659,22.637796,6,P-GPS,
10300,2022-05-04 17:22:07,0,0,22.637796,,,1876.648209659,22.96588,1.7448132,0,0,6,0,16.94,1876.648209659,22.637796,2.8632832,0,-1.11847,1.342164,0,127.5, 10.5, -2.1,0,0,1024,1024,1446,1024,0,0,64,0,127.5,0,100,4.148,4.146,4.17,4.172,0,0,11.04,80.51,1876.648209659,22.637796,6,P-GPS,
10400,2022-05-04 17:22:07,0,0,22.637796,,,1876.648209659,22.96588,1.2750558,0,0,6,0,16.94,1876.648209659,22.637796,2.8632832,0,-0.894776,0.894776,-0.447388,127.6, 9.3, -2,0,0,1024,1024,1485,1024,0,0,70,0,127.5,0,100,4.148,4.146,4.17,4.172,0,0,11.04,80.51,1876.648209659,22.637796,6,P-GPS,
10500,2022-05-04 17:22:07,0,0,22.637796,,,1876.648209659,22.96588,0.8052984,0,0,5,0,16.94,1876.648209659,22.637796,2.8632832,0,-0.671082,0.447388,-1.11847,127.7, 7.3, -3.1,0,0,1024,1024,1493,1024,0,0,71,0,127.5,0,100,4.148,4.146,4.17,4.172,0,0,11.04,80.51,1876.648209659,22.637796,6,P-GPS,
10600,2022-05-04 17:22:07,0,0,22.96588,,,1876.976293659,23.293964,0.4921268,0,0,5,0,16.94,1876.976293659,22.96588,2.8632832,0,-0.447388,0.223694,-1.342164,127.8, 4.9, -4.1,0,0,1024,1024,1476,1024,0,0,68,0,127.5,0,100,4.148,4.146,4.17,4.172,0,0,11.04,80.51,1876.976293659,22.96588,6,P-GPS,
10700,2022-05-04 17:22:08,0,0,23.293964,,,1877.304377659,23.622048,0.4921268,0,0,5,0,16.94,1877.304377659,23.293964,2.8632832,0,-0.447388,0.223694,-1.342164,127.8, 3.9, -4.6,0,0,1024,1024,1489,1024,0,0,70,0,127.5,0,100,4.148,4.146,4.17,4.172,0,0,11.04,80.51,1877.304377659,23.293964,6,P-GPS,
10800,2022-05-04 17:22:08,0,0,23.622048,,,1877.632461659,23.622048,0.447388,0,0,5,0,16.94,1877.632461659,23.622048,2.8632832,0,-0.447388,0,-1.565858,127.9, 3.7, -4.6,0,0,1024,1024,1546,1024,0,0,79,0,127.5,0,100,4.148,4.146,4.17,4.172,0,0,11.04,80.51,1877.632461659,23.622048,6,P-GPS,
10900,2022-05-04 17:22:08,0,0,23.622048,,,1877.632461659,23.950132,0.447388,0,0,6,0,16.94,1877.632461659,23.622048,2.8632832,0,-0.447388,0,-1.342164,128, 3, -4.3,0,0,1024,1024,1684,1024,0,0,100,0,127.6,0,100,4.148,4.146,4.17,4.172,0,0,11.04,80.51,1877.632461659,23.622048,6,P-GPS,
11000,2022-05-04 17:22:08,0,0,23.950132,,,1877.960545659,23.950132,0.447388,0,0,6,0,16.94,1877.960545659,23.950132,2.8632832,0,-0.447388,0,-1.342164,128, 2.3, -4.3,0,0,1024,1024,1684,1024,0,0,100,0,127.6,0,100,4.148,4.146,4.17,4.172,0,0,11.04,80.51,1877.960545659,23.950132,6,P-GPS,
11100,2022-05-04 17:22:08,0,0,24.278216,,,1878.288629659,24.278216,0.223694,0,0,5,0,16.94,1878.288629659,24.278216,2.8632832,0,-0.223694,0,-1.342164,128, 3.1, -4.6,0,0,1024,1024,1684,1024,0,0,100,0,127.6,0,100,4.148,4.146,4.17,4.172,0,0,11.04,80.51,1878.288629659,24.278216,6,P-GPS,
11200,2022-05-04 17:22:08,0,0,24.278216,,,1878.288629659,24.6063,0.223694,0,0,5,0,16.94,1878.288629659,24.278216,2.8632832,0,-0.223694,0,-1.11847,128.1, 3.4, -4.3,0,0,1024,1024,1682,1024,0,0,100,0,127.6,0,100,4.148,4.146,4.17,4.172,0,0,11.04,80.51,1878.288629659,24.278216,6,P-GPS,
11300,2022-05-04 17:22:08,0,0,24.278216,,,1878.288629659,24.6063,0.223694,0,0,5,0,16.521,1878.288629659,24.278216,2.8632832,0,-0.223694,0,-0.894776,128.2, 2.7, -4.3,0,0,1024,1024,1624,1024,0,0,91,0,127.6,0,100,4.137,4.129,4.148,4.149,0,0,11.856,80.51,1878.288629659,24.278216,6,P-GPS,"Max Altitude Approached. Wait for the GPS satellite signal recovery before ascend."
11400,2022-05-04 17:22:08,0,0,24.6063,,,1878.616713659,24.934384,0.223694,0,0,5,0,16.521,1878.616713659,24.6063,2.8632832,0,-0.223694,0,-0.894776,128.2, 1.7, -4.8,0,0,1024,1024,1578,1024,0,0,84,0,127.6,0,100,4.137,4.129,4.148,4.149,0,0,11.856,80.51,1878.616713659,24.6063,6,P-GPS,
11500,2022-05-04 17:22:08,0,0,24.6063,,,1878.616713659,24.934384,0.223694,0,0,6,0,16.521,1878.616713659,24.6063,2.8632832,0,-0.223694,0,-0.671082,128.3, 1.9, -4.7,0,0,1024,1024,1531,1024,0,0,77,0,127.6,0,100,4.137,4.129,4.148,4.149,0,0,11.856,80.51,1878.616713659,24.6063,6,P-GPS,"Weak GPS signal. Positional accuracy may be compromised. Please fly with caution."
11600,2022-05-04 17:22:08,0,0,24.934384,,,1878.944797659,24.934384,0.223694,0,0,6,0,16.521,1878.944797659,24.934384,2.8632832,0,-0.223694,0,-0.671082,128.2, 2, -4.7,0,0,1024,1024,1493,1024,0,0,71,0,127.6,0,100,4.137,4.129,4.148,4.149,0,0,11.856,80.51,1878.944797659,24.934384,6,P-GPS,
11700,2022-05-04 17:22:09,0,0,24.934384,,,1878.944797659,25.262468,0.223694,0,0,6,0,16.521,1878.944797659,24.934384,2.8632832,0,-0.223694,0,-0.671082,128, 2.9, -5.1,0,0,1024,1024,1386,1024,0,0,55,0,127.7,0,100,4.137,4.129,4.148,4.149,0,0,11.856,80.51,1878.944797659,24.934384,6,P-GPS,
11800,2022-05-04 17:22:09,0,0,24.934384,,,1878.944797659,25.262468,0.223694,0,0,6,0,16.521,1878.944797659,24.934384,2.8632832,0,-0.223694,0,-0.447388,127.9, 3.4, -5.7,0,0,1024,1024,1223,1024,0,0,30,0,127.7,0,100,4.137,4.129,4.148,4.149,0,0,11.856,80.51,1878.944797659,24.934384,6,P-GPS,
11900,2022-05-04 17:22:09,0,0,24.934384,,,1878.944797659,25.262468,0.223694,0,0,6,0,16.521,1878.944797659,24.934384,2.8632832,0,-0.223694,0,-0.447388,127.9, 2.9, -5.8,0,0,1024,1024,1031,1024,0,0,1,0,127.7,0,100,4.137,4.129,4.148,4.149,0,0,11.856,80.51,1878.944797659,24.934384,6,P-GPS,
12000,2022-05-04 17:22:09,0,0,25.262468,,,1879.272881659,25.262468,0.3131716,0,0,6,0,16.521,1879.272881659,25.262468,2.8632832,0,-0.223694,-0.223694,-0.447388,128, 2.1, -6.5,0,0,1024,1024,1024,1024,0,0,0,0,127.7,0,100,4.137,4.129,4.148,4.149,0,0,11.856,80.51,1879.272881659,25.262468,6,P-GPS,
12100,2022-05-04 17:22:09,0,0,25.262468,,,1879.272881659,25.262468,0.223694,0,0,6,0,16.521,1879.272881659,25.262468,2.8632832,0,0,-0.223694,-0.223694,128.2, 1.6, -6.7,0,0,1024,1024,1024,1024,0,0,0,0,127.7,0,100,4.137,4.129,4.148,4.149,0,0,11.856,80.51,1879.272881659,25.262468,6,P-GPS,
12200,2022-05-04 17:22:09,0,0,25.590552,,,1879.600965659,25.590552,0,0,0,6,0,16.521,1879.600965659,25.590552,2.8632832,0,0,0,0,128.3, 1.1, -6.6,0,0,1024,1024,1024,1024,0,0,0,0,127.7,0,100,4.137,4.129,4.148,4.149,0,0,11.856,80.51,1879.600965659,25.590552,6,P-GPS,
12300,2022-05-04 17:22:09,0,0,25.590552,,,1879.600965659,25.590552,0,0,0,6,0,16.496,1879.600965659,25.590552,2.8632832,0,0,0,0,128.3, 0.8, -6,0,0,1024,1024,1024,1024,0,0,0,0,127.7,0,100,4.137,4.129,4.148,4.149,0,0,10.964,80.51,1879.600965659,25.590552,6,P-GPS,
12400,2022-05-04 17:22:09,0,0,25.590552,,,1879.600965659,25.590552,0,0,0,6,0,16.496,1879.600965659,25.590552,2.8632832,0,0,0,0,128.2, 0.8, -6,0,0,1024,1024,1024,1024,0,0,0,0,127.7,0,100,4.137,4.129,4.148,4.149,0,0,10.964,80.51,1879.600965659,25.590552,6,P-GPS,
12500,2022-05-04 17:22:09,0,0,25.590552,,,1879.600965659,25.590552,0,0,0,6,0,16.496,1879.600965659,25.590552,2.8632832,0,0,0,0,128.2, 1.2, -5.8,0,0,1024,1024,1024,1024,0,0,0,0,127.7,0,100,4.137,4.129,4.148,4.149,0,0,10.964,80.51,1879.600965659,25.590552,6,P-GPS,
12600,2022-05-04 17:22:10,0,0,25.918636,,,1879.929049659,25.590552,0,0,0,6,0,16.496,1879.929049659,25.918636,2.8632832,0,0,0,0,128.1, 1.1, -5.4,0,0,1024,1024,1024,1024,0,0,0,0,127.7,0,100,4.137,4.129,4.148,4.149,0,0,10.964,80.51,1879.929049659,25.918636,6,P-GPS,
12700,2022-05-04 17:22:10,0,0,25.918636,,,1879.929049659,25.590552,0,0,0,6,0,16.496,1879.929049659,25.918636,2.8632832,0,0,0,0,128.1, 1, -5.1,0,0,1024,1024,1024,1024,0,0,0,0,127.7,0,100,4.137,4.129,4.148,4.149,0,0,10.964,80.51,1879.929049659,25.918636,6,P-GPS,
12800,2022-05-04 17:22:10,0,0,25.918636,,,1879.929049659,25.590552,0,0,0,6,0,16.496,1879.929049659,25.918636,2.8632832,0,0,0,0,128, 0.7, -5.1,0,0,1024,1024,1024,1024,0,0,0,0,127.8,0,100,4.137,4.129,4.148,4.149,0,0,10.964,80.51,1879.929049659,25.918636,6,P-GPS,
12900,2022-05-04 17:22:10,0,0,25.918636,,,1879.929049659,25.590552,0,0,0,6,0,16.496,1879.929049659,25.918636,2.8632832,0,0,0,0,128.1, 0.8, -5.3,0,0,1024,1024,1024,1024,0,0,0,0,127.8,0,100,4.137,4.129,4.148,4.149,0,0,10.964,80.51,1879.929049659,25.918636,6,P-GPS,
13000,2022-05-04 17:22:10,0,0,25.918636,,,1879.929049659,25.590552,0,0,0,6,0,16.496,1879.929049659,25.918636,2.8632832,0,0,0,0,128.1, 0.7, -4.9,0,0,1024,1024,1024,1024,0,0,0,0,127.7,0,100,4.137,4.129,4.148,4.149,0,0,10.964,80.51,1879.929049659,25.918636,6,P-GPS,
13100,2022-05-04 17:22:10,0,0,25.918636,,,1879.929049659,25.590552,0,0,0,6,0,16.496,1879.929049659,25.918636,2.8632832,0,0,0,0,128.2, 0.4, -6.1,0,0,1024,1024,1024,1024,0,0,0,0,127.8,0,100,4.137,4.129,4.148,4.149,0,0,10.964,80.51,1879.929049659,25.918636,6,P-GPS,
13200,2022-05-04 17:22:10,0,0,25.918636,,,1879.929049659,25.590552,0,0,0,6,0,16.496,1879.929049659,25.918636,2.8632832,0,0,0,0,128.4, 0.7, -6.5,0,0,1024,1024,1024,1024,0,0,0,0,127.8,0,100,4.137,4.129,4.148,4.149,0,0,10.964,80.51,1879.929049659,25.918636,6,P-GPS,
13300,2022-05-04 17:22:10,0,0,26.24672,,,1880.257133659,25.262468,0,0,0,6,0,16.39,1880.257133659,26.24672,2.8632832,0,0,0,0,128.6, 0.8, -6,0,0,1024,1024,1024,1024,0,0,0,0,127.8,0,100,4.135,4.127,4.147,4.148,0,0,10.964,80.51,1880.257133659,26.24672,6,P-GPS,
13400,2022-05-04 17:22:10,0,0,26.24672,,,1880.257133659,25.262468,0,0,0,6,0,16.39,1880.257133659,26.24672,2.8632832,0,0,0,0,128.7, 1.4, -5.7,0,0,1024,1024,1024,1024,0,0,0,0,127.8,0,100,4.135,4.127,4.147,4.148,0,0,10.964,80.51,1880.257133659,26.24672,6,P-GPS,
13500,2022-05-04 17:22:10,0,0,26.574804,,,1880.585217659,25.262468,0,0,0,8,0,16.39,1880.585217659,26.574804,2.8632832,0,0,0,0,128.5, 1.3, -6.4,0,0,1024,1024,1024,1024,0,0,0,0,127.8,0,100,4.135,4.127,4.147,4.148,0,0,10.964,80.51,1880.585217659,26.574804,6,P-GPS,
13600,2022-05-04 17:22:11,0,0,26.24672,,,1880.257133659,25.262468,0,0,0,8,0,16.39,1880.585217659,26.574804,2.8632832,0,0,0,0,128.3, 1.1, -7.2,0,0,1024,1024,1024,1024,0,0,0,0,127.9,0,100,4.135,4.127,4.147,4.148,0,0,10.964,80.51,1880.257133659,26.24672,6,P-GPS,
13700,2022-05-04 17:22:11,0,0,26.24672,,,1880.257133659,25.262468,0,0,0,8,0,16.39,1880.585217659,26.574804,2.8632832,0,0,0,0,128, 1.4, -6.3,0,0,1024,1024,1024,1024,0,0,0,0,127.8,0,100,4.135,4.127,4.147,4.148,0,0,10.964,80.51,1880.257133659,26.24672,6,P-GPS,
13800,2022-05-04 17:22:11,0,0,26.24672,,,1880.257133659,25.262468,0,0,0,8,0,16.39,1880.585217659,26.574804,2.8632832,0,0,0,0,127.9, 1.6, -6.1,0,0,1024,1024,1024,1024,0,0,0,0,127.8,0,100,4.135,4.127,4.147,4.148,0,0,10.964,80.51,1880.257133659,26.24672,6,P-GPS,
13900,2022-05-04 17:22:11,0,0,26.24672,,,1880.257133659,25.262468,0,0,0,7,0,16.39,1880.585217659,26.574804,2.8632832,0,0,0,0,127.8, 1.4, -6.4,0,0,1024,1024,1024,1024,0,0,0,0,127.9,0,100,4.135,4.127,4.147,4.148,0,0,10.964,80.51,1880.257133659,26.24672,6,P-GPS,
14000,2022-05-04 17:22:11,0,0,26.574804,,,1880.585217659,25.262468,0,0,0,7,0,16.39,1880.585217659,26.574804,2.8632832,0,0,0,0,127.7, 1.1, -6.3,0,0,1024,1024,1024,1024,0,0,0,0,127.8,0,100,4.135,4.127,4.147,4.148,0,0,10.964,80.51,1880.585217659,26.574804,6,P-GPS,
14100,2022-05-04 17:22:11,0,0,26.24672,,,1880.257133659,25.262468,0,0,0,7,0,16.39,1880.585217659,26.574804,2.8632832,0,0,0,0.223694,127.8, 0.8, -6.1,0,0,1024,1024,1024,1024,0,0,0,0,127.9,0,100,4.135,4.127,4.147,4.148,0,0,10.964,80.51,1880.257133659,26.24672,6,P-GPS,
14200,2022-05-04 17:22:11,0,0,25.918636,,,1879.929049659,25.262468,0,0,0,7,0,16.39,1880.585217659,26.574804,2.8632832,0,0,0,0.223694,127.9, 0.7, -6.2,0,0,1024,1024,1024,1024,0,0,0,0,127.9,0,100,4.135,4.127,4.147,4.148,0,0,10.964,80.51,1879.929049659,25.918636,6,P-GPS,
14300,2022-05-04 17:22:11,0,0,25.918636,,,1879.929049659,25.262468,0,0,0,7,0,16.445,1880.585217659,26.574804,2.8632832,0,0.223694,0,0.223694,127.9, 0, -6,0,0,1024,1024,1024,1024,0,0,0,0,127.9,0,100,4.125,4.115,4.138,4.145,0,0,11.782,80.51,1879.929049659,25.918636,6,P-GPS,
14400,2022-05-04 17:22:11,0,0,25.918636,,,1879.929049659,24.934384,0.223694,0,0,7,0,16.445,1880.585217659,26.574804,2.8632832,0,0.223694,0,0,128, -0.9, -5.4,0,0,1024,1024,1024,1024,0,0,0,0,127.9,0,100,4.125,4.115,4.138,4.145,0,0,11.782,80.51,1879.929049659,25.918636,6,P-GPS,
14500,2022-05-04 17:22:11,0,0,25.918636,,,1879.929049659,24.934384,0,0,0,8,0,16.445,1880.585217659,26.574804,2.8632832,0,0,0,0,128.1, -1.1, -5.2,0,0,1024,1024,1024,1024,0,0,0,0,127.9,0,100,4.125,4.115,4.138,4.145,0,0,11.782,80.51,1879.929049659,25.918636,6,P-GPS,
14600,2022-05-04 17:22:11,0,0,25.918636,,,1879.929049659,24.934384,0,0,0,8,0,16.445,1880.585217659,26.574804,2.8632832,0,0,0,0,128.3, -1.1, -5.3,0,0,1024,1024,1024,1024,0,0,0,0,127.9,0,100,4.125,4.115,4.138,4.145,0,0,11.782,80.51,1879.929049659,25.918636,6,P-GPS,
14700,2022-05-04 17:22:12,0,0,25.590552,,,1879.600965659,24.934384,0,0,0,8,2,16.445,1880.585217659,26.574804,2.8632832,0,0,0,0,128.3, -0.8, -5.6,0,0,1024,1024,1024,1024,0,0,0,0,127.9,0,100,4.125,4.115,4.138,4.145,0,0,11.782,80.51,1879.600965659,25.590552,6,P-GPS,
14800,2022-05-04 17:22:12,0,0,25.590552,,,1879.600965659,24.934384,0,0,0,8,2,16.445,1880.585217659,26.574804,2.8632832,0,0,0,0,128.3, -0.2, -5.7,0,0,1024,1024,1024,1024,0,0,0,0,127.9,0,100,4.125,4.115,4.138,4.145,0,0,11.782,80.51,1879.600965659,25.590552,6,P-GPS,
14900,2022-05-04 17:22:12,0,0,25.918636,,,1879.929049659,24.934384,0,0,0,9,2,16.445,1880.585217659,26.574804,2.8632832,0,0,0,0,128.3, -0.2, -5.7,0,0,1024,1024,1024,1024,0,0,0,0,127.9,0,100,4.125,4.115,4.138,4.145,0,0,11.782,80.51,1879.929049659,25.918636,6,P-GPS,
15000,2022-05-04 17:22:12,0,0,25.918636,,,1879.929049659,24.934384,0,0,0,9,2,16.445,1880.585217659,26.574804,2.8632832,0,0,0,0,128.4, 0, -6.1,0,0,1024,1024,1024,1024,0,0,0,0,127.9,0,100,4.125,4.115,4.138,4.145,0,0,11.782,80.51,1879.929049659,25.918636,6,P-GPS,
15100,2022-05-04 17:22:12,0,0,25.918636,,,1879.929049659,24.6063,0.223694,0,0,8,2,16.445,1880.585217659,26.574804,2.8632832,0,0,0.223694,0,128.4, 0.5, -5.8,0,0,1024,1024,1024,1024,0,0,0,0,127.9,0,100,4.125,4.115,4.138,4.145,0,0,11.782,80.51,1879.929049659,25.918636,6,P-GPS,
15200,2022-05-04 17:22:12,0,0,25.918636,,,1879.929049659,24.6063,0.223694,0,0,8,2,16.445,1880.585217659,26.574804,2.8632832,0,0,0.223694,0,128.4, 1.2, -5.4,0,0,1024,1024,1024,1024,0,0,0,0,127.9,0,100,4.125,4.115,4.138,4.145,0,0,11.782,80.51,1879.929049659,25.918636,6,P-GPS,
15300,2022-05-04 17:22:12,0,0,25.918636,,,1879.929049659,24.6063,0.223694,0,0,8,2,16.424,1880.585217659,26.574804,2.8632832,0,0,0.223694,0,128.2, 1.2, -4.8,0,0,1024,1024,1024,1024,0,0,0,0,127.9,0,100,4.129,4.124,4.145,4.143,0,0,10.952,80.51,1879.929049659,25.918636,6,P-GPS,"Setting new Maximum Flight Altitude to 120m (394 ft)"
15400,2022-05-04 17:22:12,0,0,26.24672,,,1880.257133659,24.6063,0,0,0,8,2,16.424,1880.585217659,26.574804,2.8632832,0,0,0,0,128, 1.2, -4.8,0,0,1024,1024,1036,1024,0,0,2,0,127.9,0,100,4.129,4.124,4.145,4.143,0,0,10.952,80.51,1880.257133659,26.24672,6,P-GPS,
15500,2022-05-04 17:22:12,40.2709274907506,-7.50469755712348,25.918636,,,1879.929049659,24.6063,0,0,0,8,2,16.424,1880.585217659,26.574804,2.8632832,0,0,0,0,127.9, 0.9, -4.5,0,0,1024,1024,1493,1024,0,0,71,0,127.9,0,100,4.129,4.124,4.145,4.143,0,0,10.952,80.51,1879.929049659,25.918636,6,P-GPS,
15600,2022-05-04 17:22:13,40.2709278024218,-7.50469489775741,25.918636,,,1879.929049659,24.6063,0,0.74899280612,0.74899280612,8,2,16.424,1880.585217659,26.574804,2.8632832,0.74899280612,0,0,0,127.9, 0.8, -4.5,0,0,1024,1024,1684,1024,0,0,100,0,127.9,0,100,4.129,4.124,4.145,4.143,0,0,10.952,80.51,1879.929049659,25.918636,6,P-GPS,
15700,2022-05-04 17:22:13,40.2709281049997,-7.50469225698327,25.918636,,,1879.929049659,24.6063,0,1.49236881416,1.492372095,8,2,16.424,1880.585217659,26.574804,2.8632832,1.49236881416,0,0,-0.223694,128, 0.4, -3.9,0,0,1024,1024,1684,1024,0,0,100,0,127.9,0,100,4.129,4.124,4.145,4.143,0,0,10.952,80.51,1879.929049659,25.918636,6,P-GPS,
15800,2022-05-04 17:22:13,40.2708977251393,-7.50494017615899,25.918636,,,1879.929049659,24.6063,0,68.407482504,71.392390736,8,2,16.424,1880.585217659,26.574804,2.8632832,68.407482504,0,0,-1.11847,128, -0.1, -4.6,0,0,1024,1024,1669,1024,0,0,98,0,127.9,0,100,4.129,4.124,4.145,4.143,0,0,10.952,80.51,1879.929049659,25.918636,6,P-GPS,
15900,2022-05-04 17:22:13,40.2708413323289,-7.50540057218604,26.24672,,,1880.257133659,24.934384,0,198.213260936,201.197841084,8,2,16.424,1880.585217659,26.574804,2.8632832,198.213260936,0,0,-1.565858,128, -0.7, -5.4,0,0,1024,1024,1638,1024,0,0,93,0,127.9,0,100,4.129,4.124,4.145,4.143,0,0,10.952,80.51,1880.257133659,26.24672,6,P-GPS,
16000,2022-05-04 17:22:13,40.2708164958033,-7.50560479414895,26.574804,,,1880.585217659,24.934384,0,255.781832332,258.766740564,8,2,16.424,1880.585217659,26.574804,2.8632832,255.781832332,0,0,-2.013246,127.9, -0.5, -5.6,0,0,1024,1024,1621,1024,0,0,90,0,127.9,0,100,4.129,4.124,4.145,4.143,0,0,10.952,80.51,1880.585217659,26.574804,6,P-GPS,
16100,2022-05-04 17:22:13,40.2708167323701,-7.50560565553906,27.230972,,,1881.241385659,25.262468,0,256.004929452,259.021333748,8,2,16.424,1881.241385659,27.230972,2.8632832,256.004929452,0,0,-2.460634,127.9, -0.5, -5.2,0,0,1024,1024,1585,1024,0,0,85,0,127.9,0,100,4.129,4.124,4.145,4.143,0,0,10.952,80.51,1881.241385659,27.230972,6,P-GPS,
16200,2022-05-04 17:22:13,40.2708168601133,-7.50560607132955,27.559056,,,1881.569469659,25.590552,0,256.111884836,259.146333752,8,2,16.424,1881.569469659,27.559056,2.8632832,256.111884836,0,0,-2.908022,127.9, 0, -5.3,0,0,1024,1024,1581,1024,0,0,84,0,127.9,0,100,4.129,4.124,4.145,4.143,0,0,10.952,80.51,1881.569469659,27.559056,6,P-GPS,
16300,2022-05-04 17:22:13,40.2708171514446,-7.50560995567756,27.559056,,,1881.569469659,26.24672,0.223694,257.163065972,260.232619876,8,2,16.487,1881.569469659,27.559056,2.8632832,257.163065972,0,0.223694,-2.908022,127.9, -0.3, -5.1,0,0,1024,1024,1594,1024,0,0,86,0,127.9,0,100,4.129,4.117,4.139,4.127,0,0,10.966,80.51,1881.569469659,27.559056,6,P-GPS,
16400,2022-05-04 17:22:13,40.2708173219858,-7.50561005181587,28.215224,,,1882.225637659,26.574804,0.223694,257.179798256,260.300533264,8,2,16.487,1882.225637659,28.215224,2.8632832,257.179798256,0,0.223694,-3.131716,128, -0.4, -4.8,0,0,1024,1024,1658,1024,0,0,96,0,127.9,0,100,4.129,4.117,4.139,4.127,0,0,10.966,80.51,1882.225637659,28.215224,6,P-GPS,
16500,2022-05-04 17:22:13,40.2708175927487,-7.50561018246629,28.215224,,,1882.225637659,26.902888,0.223694,257.200467548,260.405848228,8,2,16.487,1882.225637659,28.215224,2.8632832,257.200467548,0,0.223694,-3.35541,128, -0.7, -4.1,0,0,1024,1024,1684,1024,0,0,100,0,127.9,0,100,4.129,4.117,4.139,4.127,0,0,10.966,80.51,1882.225637659,28.215224,6,P-GPS,
16600,2022-05-04 17:22:14,40.2708177813594,-7.50561018576756,28.871392,,,1882.881805659,27.559056,0.223694,257.190625028,260.474745868,8,2,16.487,1882.881805659,28.871392,2.8632832,257.200467548,0,0.223694,-3.579104,128.1, -0.1, -3.4,0,0,1024,1024,1608,1024,0,0,88,0,127.9,0,100,4.129,4.117,4.139,4.127,0,0,10.966,80.51,1882.881805659,28.871392,6,P-GPS,
16700,2022-05-04 17:22:14,40.2708181589188,-7.50561046091505,29.199476,,,1883.209889659,27.88714,0,257.244758888,260.632226188,8,2,16.487,1883.209889659,29.199476,2.8632832,257.244758888,0,0,-3.802798,128.1, -0.2, -3.3,0,0,1024,1024,1523,1024,0,0,76,0,127.9,0,100,4.129,4.117,4.139,4.127,0,0,10.966,80.51,1883.209889659,29.199476,6,P-GPS,
16800,2022-05-04 17:22:14,40.2708182707121,-7.50561040373375,29.199476,,,1883.209889659,28.543308,0,257.22277726,260.67586136,8,3,16.487,1883.209889659,29.199476,2.8632832,257.244758888,0,0,-3.802798,128.1, -0.2, -3.5,0,0,1024,1024,1434,1024,0,0,62,0,127.9,0,100,4.129,4.117,4.139,4.127,0,0,10.966,80.51,1883.209889659,29.199476,6,P-GPS,
16900,2022-05-04 17:22:14,40.2708183727868,-7.50561033709403,29.855644,,,1883.866057659,29.199476,0,257.198827128,260.717528028,8,3,16.487,1883.866057659,29.855644,2.8632832,257.244758888,0,0,-4.026492,128, -0.4, -3.3,0,0,1024,1024,1313,1024,0,0,44,0,127.9,0,100,4.129,4.117,4.139,4.127,0,0,10.966,80.51,1883.866057659,29.855644,6,P-GPS,
17000,2022-05-04 17:22:14,40.2708184716592,-7.50561027166867,30.183728,,,1884.194141659,29.855644,0,257.17520508,260.75788236,8,3,16.487,1884.194141659,30.183728,2.8632832,257.244758888,0,0,-4.250186,127.9, -0.2, -3.1,0,0,1024,1024,1249,1024,0,0,34,0,127.9,0,100,4.129,4.117,4.139,4.127,0,0,10.966,80.51,1884.194141659,30.183728,6,P-GPS,
17100,2022-05-04 17:22:14,40.2708185744611,-7.50561035764237,30.839896,,,1884.850309659,30.183728,0,257.192921616,260.802501784,8,3,16.487,1884.850309659,30.839896,2.8632832,257.244758888,0,0,-4.026492,127.9, -0.2, -5.2,0,0,1024,1024,1291,1024,0,0,40,0,127.9,0,100,4.129,4.117,4.139,4.127,0,0,10.966,80.51,1884.850309659,30.839896,6,P-GPS,
17200,2022-05-04 17:22:14,40.2708185827818,-7.50561027590687,31.16798,,,1885.178393659,30.839896,0,257.169955736,260.825467664,8,3,16.487,1885.178393659,31.16798,2.8632832,257.244758888,0,0,-3.131716,128.1, -1.7, -6.4,0,0,1024,1024,1165,1024,0,0,21,0,127.9,0,100,4.129,4.117,4.139,4.127,0,0,10.966,80.51,1885.178393659,31.16798,6,P-GPS,
17300,2022-05-04 17:22:14,40.2708185359201,-7.50561009405463,31.496064,,,1885.506477659,31.16798,0,257.12271164,260.878945356,8,3,16.424,1885.506477659,31.496064,2.8632832,257.244758888,0,0,-2.908022,128.1, -2.2, -4.2,0,0,1024,1024,1131,1024,0,0,16,0,127.9,0,100,4.129,4.117,4.139,4.127,0,0,10.966,80.51,1885.506477659,31.496064,6,P-GPS,
17400,2022-05-04 17:22:14,40.270818526662,-7.50560993651813,32.152232,,,1886.162645659,31.496064,0,257.079732636,260.922908612,8,3,16.424,1886.162645659,32.152232,2.8632832,257.244758888,0,0,-2.684328,127.9, -1.4, -4.4,0,0,1024,1024,1191,1024,0,0,25,0,127.9,0,100,4.129,4.117,4.139,4.127,0,0,10.966,80.51,1886.162645659,32.152232,6,P-GPS,
17500,2022-05-04 17:22:14,40.2708185397298,-7.50560981039879,32.480316,,,1886.490729659,31.824148,0.223694,257.044299564,260.958341684,8,3,16.424,1886.490729659,32.480316,2.8632832,257.244758888,0,0.223694,-1.789552,127.9, -1, -5.5,0,0,1024,1024,1308,1024,0,0,43,0,127.9,0,100,4.129,4.117,4.139,4.127,0,0,10.966,80.51,1886.490729659,32.480316,6,P-GPS,
17600,2022-05-04 17:22:14,40.2708184285594,-7.50560948257311,32.480316,,,1886.490729659,32.152232,0.223694,256.960638144,261.05807922,8,3,16.424,1886.490729659,32.480316,2.8632832,257.244758888,0,0.223694,-1.342164,128, -0.2, -4.1,0,0,1024,1024,1409,1024,0,0,58,0,127.9,0,100,4.129,4.117,4.139,4.127,0,0,10.966,80.51,1886.490729659,32.480316,6,P-GPS,
17700,2022-05-04 17:22:15,40.2708184001193,-7.50560915702961,32.480316,,,1886.490729659,32.152232,0.223694,256.872711632,261.149286572,8,3,16.424,1886.490729659,32.480316,2.8632832,257.244758888,0,0.223694,-1.789552,128, 0.9, -2.7,0,0,1024,1024,1384,1024,0,0,55,0,127.9,0,100,4.129,4.117,4.139,4.127,0,0,10.966,80.51,1886.490729659,32.480316,6,P-GPS,
17800,2022-05-04 17:22:15,40.2708184014538,-7.5056088435846,32.8084,,,1886.818813659,32.480316,0.223694,256.78642554,261.236556916,8,3,16.424,1886.818813659,32.8084,2.8632832,257.244758888,0,0.223694,-2.908022,128, 0.3, -3.1,0,0,1024,1024,1346,1024,0,0,49,0,127.9,0,100,4.129,4.117,4.139,4.127,0,0,10.966,80.51,1886.818813659,32.8084,6,P-GPS,
17900,2022-05-04 17:22:15,40.2708184191541,-7.50560851277685,33.136484,,,1887.146897659,33.136484,0.4921268,256.694233936,261.329076604,9,3,16.424,1887.146897659,33.136484,2.8632832,257.244758888,-0.223694,0.447388,-3.35541,128, 0, -4.1,0,0,1024,1024,1327,1024,0,0,46,0,127.9,0,100,4.129,4.117,4.139,4.127,0,0,10.966,80.51,1887.146897659,33.136484,6,P-GPS,
18000,2022-05-04 17:22:15,40.270818334816,-7.50560773688565,33.792652,,,1887.803065659,33.464568,0.6263432,256.485572512,261.547252464,9,3,16.424,1887.803065659,33.792652,2.8632832,257.244758888,-0.447388,0.447388,-3.579104,128, 1, -5.5,0,0,1024,1024,1314,1024,0,0,44,0,127.9,0,100,4.129,4.117,4.139,4.127,0,0,10.966,80.51,1887.803065659,33.792652,6,P-GPS,
18100,2022-05-04 17:22:15,40.2708180988482,-7.50560719718749,34.44882,,,1888.459233659,34.120736,0.8052984,256.350729988,261.720152732,8,3,16.424,1888.459233659,34.44882,2.8632832,257.244758888,-0.447388,0.671082,-3.802798,128.1, 1.8, -6.7,0,0,1024,1024,1287,1024,0,0,40,0,127.9,0,100,4.129,4.117,4.139,4.127,0,0,10.966,80.51,1888.459233659,34.44882,6,P-GPS,
18200,2022-05-04 17:22:15,40.2708178957327,-7.50560670901677,35.433072,,,1889.443485659,34.44882,0.8052984,256.228026572,261.87500838,8,3,16.424,1889.443485659,35.433072,2.8632832,257.244758888,-0.447388,0.671082,-3.802798,127.9, 3.7, -5.9,0,0,1024,1024,1247,1024,0,0,34,0,127.9,0,100,4.129,4.117,4.139,4.127,0,0,10.966,80.51,1889.443485659,35.433072,6,P-GPS,
18300,2022-05-04 17:22:15,40.2708177238574,-7.50560625697565,35.433072,,,1889.443485659,34.776904,0.7158208,256.113525256,262.015756416,9,3,16.337,1889.443485659,35.433072,2.8632832,257.244758888,-0.223694,0.671082,-3.35541,127.7, 5.1, -5.2,0,0,1024,1024,1240,1024,0,0,33,0,127.9,0,100,4.086,4.072,4.092,4.091,0,0,14.298,80.51,1889.443485659,35.433072,6,P-GPS,
18400,2022-05-04 17:22:15,40.2708172292499,-7.50560542731134,36.08924,,,1890.099653659,35.433072,0.4921268,255.9137221,262.308735428,9,3,16.337,1890.099653659,36.08924,2.8632832,257.244758888,-0.223694,0.447388,-2.684328,127.8, 5.7, -4.6,0,0,1024,1024,1253,1024,0,0,35,0,127.9,0,100,4.086,4.072,4.092,4.091,0,0,14.298,80.51,1890.099653659,36.08924,6,P-GPS,
18500,2022-05-04 17:22:15,40.2708171539735,-7.50560508155569,36.417324,,,1890.427737659,35.761156,0.447388,255.822842832,262.408801048,9,3,16.337,1890.427737659,36.417324,2.8632832,257.244758888,0,0.447388,-2.460634,127.8, 5.6, -3.7,0,0,1024,1024,1339,1024,0,0,48,0,127.9,0,100,4.086,4.072,4.092,4.091,0,0,14.298,80.51,1890.427737659,36.417324,6,P-GPS,
18600,2022-05-04 17:22:16,40.2708171637339,-7.50560481608725,36.417324,,,1890.427737659,35.761156,0.223694,255.749352016,262.482948032,9,3,16.337,1890.427737659,36.417324,2.8632832,257.244758888,0,0.223694,-2.23694,127.9, 4.4, -2.9,0,0,1024,1024,1434,1024,0,0,62,0,127.9,0,100,4.086,4.072,4.092,4.091,0,0,14.298,80.51,1890.427737659,36.417324,6,P-GPS,
18700,2022-05-04 17:22:16,40.27081723738,-7.50560460180137,36.745408,,,1890.755821659,36.08924,0.223694,255.686359888,262.548236748,9,3,16.337,1890.755821659,36.745408,2.8632832,257.244758888,0,0,-2.460634,128.1, 3.1, -2.4,0,0,1024,1024,1454,1024,0,0,65,0,127.9,0,100,4.086,4.072,4.092,4.091,0,0,14.298,80.51,1890.755821659,36.745408,6,P-GPS,
18800,2022-05-04 17:22:16,40.2708174975857,-7.50560446900576,37.401576,,,1891.411989659,36.745408,0,255.6348507,262.650270872,9,3,16.337,1891.411989659,37.401576,2.8632832,257.244758888,0,0,-3.579104,128.1, 2.3, -2.1,0,0,1024,1024,1455,1024,0,0,65,0,127.9,0,100,4.086,4.072,4.092,4.091,0,0,14.298,80.51,1891.411989659,37.401576,6,P-GPS,
18900,2022-05-04 17:22:16,40.2708176193632,-7.50560438444526,37.401576,,,1891.411989659,37.073492,0,255.604666972,262.700467724,9,3,16.337,1891.411989659,37.401576,2.8632832,257.244758888,0,0,-4.47388,127.9, 2.5, -3.6,0,0,1024,1024,1456,1024,0,0,65,0,127.9,0,100,4.086,4.072,4.092,4.091,0,0,14.298,80.51,1891.411989659,37.401576,6,P-GPS,
19000,2022-05-04 17:22:16,40.2708177200625,-7.50560436249539,38.057744,,,1892.068157659,37.72966,0,255.592855948,262.737541216,9,3,16.337,1892.068157659,38.057744,2.8632832,257.244758888,0,0,-4.921268,127.9, 2.2, -3.9,0,0,1024,1024,1445,1024,0,0,64,0,127.9,0,100,4.086,4.072,4.092,4.091,0,0,14.298,80.51,1892.068157659,38.057744,6,P-GPS,
19100,2022-05-04 17:22:16,40.2708178171497,-7.5056043802411,39.041996,,,1893.052409659,38.385828,0,255.59219978,262.773302372,9,3,16.337,1893.052409659,39.041996,2.8632832,257.244758888,0,0,-5.59235,128, 1.5, -4.3,0,0,1024,1024,1447,1024,0,0,64,0,127.9,0,100,4.086,4.072,4.092,4.091,0,0,14.298,80.51,1893.052409659,39.041996,6,P-GPS,
19200,2022-05-04 17:22:16,40.2708177844766,-7.50560434654461,40.354332,,,1894.364745659,39.37008,0,255.584653848,262.78872232,9,3,16.337,1894.364745659,40.354332,2.8632832,257.244758888,0,0,-5.816044,128, 2, -4.7,0,0,1024,1024,1442,1024,0,0,63,0,127.9,0,100,4.086,4.072,4.092,4.091,0,0,14.298,80.51,1894.364745659,40.354332,6,P-GPS,
19300,2022-05-04 17:22:16,40.2708173029682,-7.50560440295967,40.682416,,,1894.692829659,40.026248,0.223694,255.627960936,262.964903428,9,3,16.286,1894.692829659,40.682416,2.8632832,257.244758888,0,-0.223694,-5.59235,128, 2.2, -5.2,0,0,1024,1024,1441,1024,0,0,63,0,127.9,0,100,4.102,4.096,4.117,4.115,0,0,14.338,80.51,1894.692829659,40.682416,6,P-GPS,
19400,2022-05-04 17:22:16,40.2708172876759,-7.50560448687952,41.666668,,,1895.677081659,41.0105,0.223694,255.651911068,262.98885356,9,3,16.286,1895.677081659,41.666668,2.8632832,257.244758888,0,-0.223694,-5.59235,128.1, 1.4, -5.5,0,0,1024,1024,1444,1024,0,0,64,0,127.9,0,100,4.102,4.096,4.117,4.115,0,0,14.338,80.51,1895.677081659,41.666668,6,P-GPS,
19500,2022-05-04 17:22:16,40.2708173549431,-7.50560464453456,42.322836,,,1896.333249659,41.666668,0.223694,255.691281148,263.039378496,9,4,16.286,1896.333249659,42.322836,2.8632832,257.244758888,0,-0.223694,-5.59235,128.1, 1.5, -5.2,0,0,1024,1024,1447,1024,0,0,64,0,127.9,0,100,4.102,4.096,4.117,4.115,0,0,14.338,80.51,1896.333249659,42.322836,6,P-GPS,
19600,2022-05-04 17:22:16,40.2708174064776,-7.50560469490071,43.307088,,,1897.317501659,42.65092,0.223694,255.70210792,263.06267246,9,4,16.286,1897.317501659,43.307088,2.8632832,257.244758888,0,-0.223694,-5.59235,128.1, 1.3, -5,0,0,1024,1024,1442,1024,0,0,63,0,127.9,0,100,4.102,4.096,4.117,4.115,0,0,14.338,80.51,1897.317501659,43.307088,6,P-GPS,
19700,2022-05-04 17:22:17,40.2708173776321,-7.50560465563212,44.29134,,,1898.301753659,43.635172,0.223694,255.692921568,263.077764324,9,4,16.286,1898.301753659,44.29134,2.8632832,257.244758888,0,-0.223694,-5.816044,128.1, 0.9, -5.1,0,0,1024,1024,1426,1024,0,0,61,0,127.9,0,100,4.102,4.096,4.117,4.115,0,0,14.338,80.51,1898.301753659,44.29134,6,P-GPS,
19800,2022-05-04 17:22:17,40.2708173915157,-7.50560460061868,44.947508,,,1898.957921659,44.29134,0.223694,255.677173536,263.094168524,9,4,16.286,1898.957921659,44.947508,2.8632832,257.244758888,0,-0.223694,-5.816044,128, 0.9, -5.5,0,0,1024,1024,1457,1024,0,0,66,0,127.9,0,100,4.102,4.096,4.117,4.115,0,0,14.338,80.51,1898.957921659,44.947508,6,P-GPS,
19900,2022-05-04 17:22:17,40.2708173905589,-7.50560452652984,45.603676,,,1899.614089659,45.275592,0.223694,255.656832328,263.114837816,9,4,16.286,1899.614089659,45.603676,2.8632832,257.244758888,0,-0.223694,-5.59235,128, 1, -6.2,0,0,1024,1024,1475,1024,0,0,68,0,127.9,0,100,4.102,4.096,4.117,4.115,0,0,14.338,80.51,1899.614089659,45.603676,6,P-GPS,
20000,2022-05-04 17:22:17,40.2708173101982,-7.50560443390414,46.587928,,,1900.598341659,45.93176,0.223694,255.635834952,263.153879812,9,4,16.286,1900.598341659,46.587928,2.8632832,257.244758888,0,-0.223694,-5.59235,128.1, 1.4, -6.4,0,0,1024,1024,1480,1024,0,0,69,0,127.9,0,100,4.102,4.096,4.117,4.115,0,0,14.338,80.51,1900.598341659,46.587928,6,P-GPS,
20100,2022-05-04 17:22:17,40.2708169914235,-7.50560406792547,47.57218,,,1901.582593659,46.259844,0.223694,255.553813952,263.308407376,9,4,16.286,1901.582593659,47.57218,2.8632832,257.244758888,0,-0.223694,-5.816044,128, 1.5, -6.4,0,0,1024,1024,1494,1024,0,0,71,0,127.9,0,100,4.102,4.096,4.117,4.115,0,0,14.338,80.51,1901.582593659,47.57218,6,P-GPS,
20200,2022-05-04 17:22:17,40.270816890878,-7.50560401387124,48.884516,,,1902.894929659,46.259844,0.223694,255.5446276,263.34810554,9,4,16.286,1902.894929659,48.884516,2.8632832,257.244758888,0,-0.223694,-6.263432,128, 1.2, -6.9,0,0,1024,1024,1511,1024,0,0,74,0,127.9,0,100,4.102,4.096,4.117,4.115,0,0,14.338,80.51,1902.894929659,48.884516,6,P-GPS,
20300,2022-05-04 17:22:17,40.2708168115232,-7.50560397735256,49.868768,,,1903.879181659,46.259844,0,255.539050172,263.378617352,9,4,16.205,1903.879181659,49.868768,2.8632832,257.244758888,0,0,-6.487126,128.1, 0.9, -7.8,0,0,1024,1024,1501,1024,0,0,72,0,127.9,0,100,4.053,4.039,4.07,4.079,0,0,15.574,80.51,1903.879181659,49.868768,6,P-GPS,
20400,2022-05-04 17:22:17,40.2708167348179,-7.50560386638226,50.85302,,,1904.863433659,46.259844,0,255.513131536,263.42028402,9,4,16.205,1904.863433659,50.85302,2.8632832,257.244758888,0,0,-6.71082,128.3, 0.3, -6.8,0,0,1024,1024,1486,1024,0,0,70,0,127.9,0,100,4.053,4.039,4.07,4.079,0,0,15.574,80.51,1904.863433659,50.85302,6,P-GPS,"Home Point Recorded. RTH Altitude: 30m."
20500,2022-05-04 17:22:17,40.2708165114752,-7.50560352379439,52.165356,,,1906.175769659,46.259844,0,255.431766704,263.545940192,9,4,16.205,1906.175769659,52.165356,2.8632832,257.244758888,0,0,-6.934514,128.4, 0.7, -5.9,0,0,1024,1024,1470,1024,0,0,68,0,128,0,100,4.053,4.039,4.07,4.079,0,0,15.574,80.51,1906.175769659,52.165356,6,P-GPS,
20600,2022-05-04 17:22:18,40.2708164950415,-7.50560328760671,53.149608,,,1907.160021659,46.259844,0,255.367790324,263.611885076,9,4,16.205,1907.160021659,53.149608,2.8632832,257.244758888,0,0,-6.934514,128.4, 1.9, -6.3,0,0,1024,1024,1428,1024,0,0,61,0,128,0,100,4.053,4.039,4.07,4.079,0,0,15.574,80.51,1907.160021659,53.149608,6,P-GPS,
